設立單位類型,服務里別,地點,地址,Latitude,Longitude
其他(人民團體、社區發展協會、學校),同安里、新埔里、自強里、寶安里、莊敬里,桃園市桃園區同安社區發展協會,桃園市桃園區同安里同安街455巷1弄1號,25.0197582,121.3002576
里辦公處,寶慶里,桃園市桃園區寶慶里辦公處,桃園市桃園區寶慶里同德三街52號之一及同德五街300號對面槌球場,25.0113133,121.2945279
里辦公處,泰山里、中原里、玉山里,桃園市桃園區泰山里辦公處,桃園市桃園區泰山里宏昌六街19巷96號,24.9889999,121.2996942
里辦公處,龍壽里,桃園市桃園區龍壽里辦公處,桃園市桃園區龍壽里龍泉六街68號1樓,24.9837677,121.2716859
里辦公處,三民里、萬壽里、東山里,桃園市桃園區三民里辦公處,桃園市桃園區三民里中山東路128號,24.9976481,121.3207338
里辦公處,中原里、中山里、中平里,桃園市桃園區中原里辦公處,桃園市桃園區中原里泰昌六街45號1樓及桃園市桃園區中原里18鄰宏昌七街74號,24.9869643,121.2945563
里辦公處,汴洲里、春日里、自強里,桃園市桃園區汴洲里辦公處,桃園市桃園區汴洲里峨嵋二街26號,24.6788411,120.9991032
其他(人民團體、社區發展協會、學校),中埔里,桃園市社區文化推廣協會,桃園市桃園區中埔里天台街1巷7號,25.0077891,121.2898277
其他(人民團體、社區發展協會、學校),中路里、中正里、文中里、中平里、中山里,桃園市中路交流協會,桃園市桃園區中路里中山路710號,24.9913582,121.2935457
其他(人民團體、社區發展協會、學校),龍祥里,桃園市龍祥關愛協會,桃園市桃園區龍祥里11鄰中山路1308巷261號,24.9853698,121.2739265
其他(人民團體、社區發展協會、學校),中正里、中山里、文中里、中成里、中興里、光興里、泰山里、中平里,財團法人真耶穌教會臺灣總會桃園分會,桃園市桃園區中正里仁愛路21號,24.9936347,121.2942896
其他(人民團體、社區發展協會、學校),中成里,桃園市明聖社區促進會,桃園市桃園區中成里永佳街126號,25.0060333,121.2814586
其他(人民團體、社區發展協會、學校),莊敬里、自強里,桃園市桃園區莊敬社區發展協會,桃園市桃園區新埔七街169巷13號,25.0217578,121.2998944
其他(人民團體、社區發展協會、學校),南門里、南華里、西湖里、西門里,桃園市桃園區南門社區發展協會,桃園市桃園區南門里三民路三段268號,24.990875,121.306407
其他(人民團體、社區發展協會、學校),福林里、豐林里,桃園市桃園區陽明社區發展協會,桃園市桃園區福林里陽明三街33號2樓,24.979651,121.3070234
其他(人民團體、社區發展協會、學校),朝陽里,桃園市桃園區朝陽社區發展協會,桃園市桃園區朝陽里朝陽街63號,24.9979292,121.3129333
其他(人民團體、社區發展協會、學校),豐林里,桃園市桃園區豐林社區發展協會,桃園市桃園區三民路三段459號,24.9869495,121.3073196
其他(人民團體、社區發展協會、學校),忠義里、福元里、大業里,桃園市桃園區福元社區發展協會,桃園市桃園忠義里福元街135號,25.0053633,121.318356
其他(人民團體、社區發展協會、學校),中正里,桃園市向陽社會服務協會,桃園市桃園區中正里縣府路256巷5弄4號,24.9934696,121.2987236
其他(人民團體、社區發展協會、學校),中正里、中平里、中泰里、中聖里,桃園市新生活文化推廣協會,桃園市桃園區中聖里宏昌六街316號,24.9868147,121.2889218
其他(人民團體、社區發展協會、學校),青溪里、成功里、東門里,桃園市桃園區小檜溪社區發展協會,桃園市桃園區清溪里鎮撫街41號,24.9981991,121.3144654
其他(人民團體、社區發展協會、學校),豐林里,財團法人桃園市優勝地社會福利基金會,桃園市桃園區豐林里介壽路352號1樓,24.979899,121.304885
其他(人民團體、社區發展協會、學校),新埔里,桃園市桃園區新埔社區發展協會,桃園市桃園區新埔里南通路65號,25.0200494,121.3055322
其他(人民團體、社區發展協會、學校),會稽里、大有里、寶山里,桃園市桃園區大檜溪社區發展協會,桃園市桃園區檜稽里興一街65巷50號,25.0232888,121.3085205
其他(人民團體、社區發展協會、學校),三民里、成功里、萬壽里、三元里、朝陽里、建國里、青溪里,財團法人天主教德來會,桃園市桃園區三民里三民路一段2號,24.9964566,121.3233068
其他(人民團體、社區發展協會、學校),文化里,社團法人桃園市全人生命教育協會,桃園市桃園區文化里中華路49號,24.9907663,121.3105851
其他(人民團體、社區發展協會、學校),中山里、中平里、中聖里,社團法人台灣樂活服務發展協會,桃園市桃園區中山里中平路98號18樓,24.9878875,121.2927033
其他(人民團體、社區發展協會、學校),瑞慶里,桃園市桃園區同德社區發展協會,桃園市桃園區瑞慶里永安北路500號2樓,25.0194769,121.2925425
其他(人民團體、社區發展協會、學校),龍安里、龍鳳里、龍岡里,桃園市桃園區龍岡社區發展協會,桃園市桃園區龍鳳里國豐二街6號,24.9895262,121.2808714
其他(人民團體、社區發展協會、學校),中山里、中泰里、中平里、中原里、中聖里,桃園市桃園區五中社區發展協會,桃園市桃園區中平路118號、桃園區國聖一街192號,24.9866148,121.2928435
其他(人民團體、社區發展協會、學校),光興里、泰山里,桃園市加利利愛鄰全人關懷協會,桃園市桃園區光興里縣府路332號4樓,24.9921541,121.3008535
其他(人民團體、社區發展協會、學校),中寧里、慈文里、同安里,社團法人桃園市社會服務關懷協會(中寧據點),桃園市桃園區中寧里同德二街189巷3號1樓,25.0096061,121.2991646
其他(人民團體、社區發展協會、學校),桃園區、中德里、八德區、大同里,財團法人桃園市護國宮愛心基金會,桃園市桃園區中德里國際路一段401巷123號,24.966487,121.2891798
其他(人民團體、社區發展協會、學校),中和里,財團法人天主教德來會（認知休憩站）,桃園市桃園區永樂街147號,24.9990745,121.3092803
其他(人民團體、社區發展協會、學校),中信里,桃園市失智症關懷協會（認知休憩站）,桃園市桃園區中山路1000號,24.9885825,121.2853091
其他(人民團體、社區發展協會、學校),大正里、大福里,桃園市八德區正福社區發展協會,桃園市八德區大福街29號,24.9746067,121.3009824
其他(人民團體、社區發展協會、學校),茄明里、高城里,桃園市八德區明光福德協會,桃園市八德區明光街8巷1號、中華路27號,24.9840368,121.2794491
其他(人民團體、社區發展協會、學校),大強里,桃園市德強愛心關懷協會,桃園市八德區東勇街490巷288號,24.9706815,121.3146065
其他(人民團體、社區發展協會、學校),高明里、高城里、永豐里,桃園市八德區愛心關懷發展協會,桃園市八德區永豐路572巷19號,24.9759173,121.2720134
其他(人民團體、社區發展協會、學校),白鷺里、茄苳里,桃園市八德區白鷺社區發展協會,桃園市八德區永豐路170號,24.965179,121.2786505
其他(人民團體、社區發展協會、學校),廣興里、廣德里,桃園市八德區廣興社區發展協會,桃園市八德區廣興路643號,24.9469812,121.2835513
其他(人民團體、社區發展協會、學校),茄明里,桃園市八德區茄明社區發展協會,桃園市八德區茄明里中華路27號,24.9863914,121.2818339
其他(人民團體、社區發展協會、學校),大明里、大仁里、大湖里、鶯歌區鳳祥里、鶯歌區鳳鳴里、鶯歌區鳳福里,桃園市八德區明仁社區發展協會,桃園市八德區大明里興隆街11巷8號,24.9674124,121.3271327
其他(人民團體、社區發展協會、學校),大興里、大華里、大順里、大昌里、大愛里,桃園市八德區大興社區發展協會,桃園市八德區介壽路二段361巷96號,24.9470509,121.299837
其他(人民團體、社區發展協會、學校),大安里、大竹里,桃園市八德區大安社區發展協會, 桃園市八德區建安街110號(第二活動中心),24.9570859,121.3127737
里辦公處,瑞祥里,桃園市八德區瑞祥里辦公處,桃園市八德區介壽路二段1233巷46-1號,24.9302426,121.2991575
里辦公處,大千里,桃園市八德區大千里辦公處,桃園市八德區大千里東勇街19巷5號、桃園市八德區永福街一段74巷8號,24.960359,121.3063101
里辦公處,大勇里,桃園市八德區大勇里辦公處,桃園市八德區大勇里自強街60號(健促)、桃園市八德區大勇里忠勇街425號(共餐)、桃園市八德區大勇里忠勇街424巷63弄202號(大型活動),24.9676743,121.3035374
其他(人民團體、社區發展協會、學校),大信里,桃園市八德區榮光服務協會,桃園市八德區大信里大興路1025號,24.9366555,121.302581
其他(人民團體、社區發展協會、學校),高城里、高明里、永豐里、桃園區龍祥里、中壢區普忠里,社團法人台灣多元社會福利協會,桃園市八德區高城里高城六街73號,24.9783719,121.272848
其他(人民團體、社區發展協會、學校),大漢里、大義里、大勇里,桃園市八德區大漢社區發展協會,桃園市八德區大漢里東勇一路51號,24.9641465,121.3049146
其他(人民團體、社區發展協會、學校),瑞泰里、瑞德里、瑞發里、大順里,桃園市八德區瑞泰社區發展協會,桃園市八德區瑞泰里2鄰介壽路2段583巷12號,24.94165,121.298272
其他(人民團體、社區發展協會、學校),大成里、大慶里,桃園市八德區大成社區發展協會,桃園市八德區大成里建國路1199號2樓,24.9576953,121.2987409
其他(人民團體、社區發展協會、學校),陸光里、大智里,桃園市陸光關懷協會,桃園市八德區陸光里陸光街50巷1號1樓,24.961571,121.29728
其他(人民團體、社區發展協會、學校),大智里、大福里、大正里、大忠里、大宏里,桃園市八德區老人會,桃園市八德區大智里福國北街220號,24.9631198,121.296878
其他(人民團體、社區發展協會、學校),瑞發里,桃園市八德區瑞發服務協會,桃園市八德區瑞發里介壽路二段946巷2號,24.9350034,121.2970742
其他(人民團體、社區發展協會、學校),竹園里、霄裡里、龍友里,桃園市八德區竹霄社區發展協會,桃園市八德區竹園里15鄰霄裡路12號,24.9330497,121.2639455
其他(人民團體、社區發展協會、學校),高城里、高明里、茄明里、永豐里,桃園市八德區高城社區發展協會,桃園市八德區高城里高城六街60號,24.9789644,121.2743124
其他(人民團體、社區發展協會、學校),茄苳里,桃園市茄苳愛心關懷協會,桃園市八德區永豐路262.264號,24.9695402,121.2760757
其他(人民團體、社區發展協會、學校),大和里、大城里,財團法人弘道老人福利基金會（認知休憩站）,桃園市八德區建國路1124號,24.956655,121.296874
其他(人民團體、社區發展協會、學校),橫峰里、埔心里、溪海里、五權里、青埔里,社團法人中華民國士林靈糧堂社會福利協會（認知休憩站）,桃園市大園區橫峰里大豐二街67號,25.0233717,121.2193557
其他(人民團體、社區發展協會、學校),大海里、三石里、埔心里,桃園市大園區大海社區發展協會,桃園市大園區大海里建國8村164號,25.0612739,121.2313591
其他(人民團體、社區發展協會、學校),溪海里,桃園市大園區溪海社區發展協會,桃園市大園區溪海里聖德北路22巷76弄1號,25.0468388,121.1898403
其他(人民團體、社區發展協會、學校),海口里,桃園市大園區海口社區發展協會,桃園市大園區海口里4鄰漁港路15號,25.1080996,121.2419478
其他(人民團體、社區發展協會、學校),北港里,桃園市大園區北港社區發展協會,桃園市大園區北港里9鄰潮音二路226號,25.0762557,121.1692268
其他(人民團體、社區發展協會、學校),後厝里、圳頭里、沙崙里,桃園市大園區后厝社區發展協會,桃園市大園區後厝里中華路595號,25.0757637,121.21154
其他(人民團體、社區發展協會、學校),埔心里、大海里、田心里,桃園市大園區埔心社區發展協會,桃園市大園區埔心里中正東路一段671巷23號,25.0394907,121.2292704
其他(人民團體、社區發展協會、學校),南港里,桃園市大園區南港社區發展協會,桃園市大園區南港里文治路20號,25.0507602,121.1689512
其他(人民團體、社區發展協會、學校),和平里、溪海里,桃園市大園區和平社區發展協會,桃園市大園區和平里14鄰平南路77巷9號,25.0395766,121.1804569
其他(人民團體、社區發展協會、學校),大園里、田心里、埔心里、溪海里、南港里、橫峰里、後厝里、北港里,桃園市大園區大園社區發展協會,桃園市桃園區大園里32鄰和平東路89號,25.0626706,121.200378
其他(人民團體、社區發展協會、學校),三石里、?林里,桃園市大園區三石社區發展協會,桃園市大園區三石里三和路5號2樓,25.0730407,121.2582328
其他(人民團體、社區發展協會、學校),橫峰里、大園里、中壢區青埔里,桃園市大園區橫峰社區發展協會,桃園市大園區橫峰里中山南路361-1號,25.0172573,121.2105625
其他(人民團體、社區發展協會、學校),竹圍里、海口里、沙崙里,桃園市大園區竹圍社區發展協會,桃園市大園區竹圍里8鄰90-6號,25.0937699,121.2426057
其他(人民團體、社區發展協會、學校),圳頭里,桃園市大園區圳頭社區發展協會,桃園市大園區圳頭里濱海路二段432號及後館路25號,25.0895208,121.1989886
其他(人民團體、社區發展協會、學校),沙崙里、後厝里、竹圍里,桃園市大園區沙崙社區發展協會,桃園市大園區沙崙里12鄰41-3號,24.8670422,121.2363261
其他(人民團體、社區發展協會、學校),內海里,桃園市大園區內海社區發展協會,桃園市大園區內海里2鄰學府路11號,25.0853755,121.1897258
其他(人民團體、社區發展協會、學校),正義里、信義里、普強里、普仁里、普忠里,社團法人桃園市木匠的家協會（認知休憩站）,桃園市中壢區正義里中北路二段387號,24.9541082,121.2315504
其他(人民團體、社區發展協會、學校),湧豐里、湧安里、莊敬里、平安里、福林里、山峰里、東勢里、南勢里,社團法人桃園市愛鄰舍協會（認知休憩站）,桃園市平鎮區湧豐里南豐路194號,24.899911,121.2059003
其他(人民團體、社區發展協會、學校),仁武里、仁文里,桃園市大溪區崎頂社區發展協會,桃園市大溪區仁武里1鄰公園路30號2樓,24.90478,121.2840099
其他(人民團體、社區發展協會、學校),中新里,桃園市大溪區中興社區發展協會,桃園市大溪區中新里大鶯路1450巷26號,24.9285522,121.3168774
其他(人民團體、社區發展協會、學校),仁善里、仁美里,桃園市大溪區仁善社區發展協會,桃園市大溪區仁善里仁德街19號,24.9089157,121.2789883
其他(人民團體、社區發展協會、學校),仁和里、仁愛里、仁文里、光明里,桃園市大溪區仁和社區發展協會,桃園市大溪區仁和里仁和七街159號二樓,24.8946812,121.2731122
其他(人民團體、社區發展協會、學校),仁文里,桃園市大溪區長青老人會,桃園市大溪區仁文里介壽路1267巷33號,24.8986685,121.2858209
其他(人民團體、社區發展協會、學校),南興里,桃園市大溪區南興社區發展協會,桃園市大溪區南興里仁和路二段190巷29號,24.9043549,121.2636901
其他(人民團體、社區發展協會、學校),月眉里,桃園市大溪區月眉社區發展協會,桃園市大溪區月眉里月湖路56號,24.8896111,121.2878716
其他(人民團體、社區發展協會、學校),永福里、月眉里,桃園市大溪區永福社區發展協會,桃園市大溪區永福里信義路1125號,24.8943641,121.3241836
里辦公處,一德里,桃園市大溪區一德里辦公處,桃園市大溪區一德里文化路253號,24.8761443,121.2884527
里辦公處,僑愛里,桃園市大溪區僑愛里辦公處,桃園市大溪區僑愛里僑愛一街55號,24.9228674,121.293594
里辦公處,仁義里,桃園市大溪區仁義里辦公處,桃園市大溪區仁義里介壽路211巷2弄32號,24.9197678,121.2933655
其他(人民團體、社區發展協會、學校),一心里、義和里、田心里,桃園市愛鎮協會,桃園市大溪區田心里東二路31號,24.8838419,121.2917933
其他(人民團體、社區發展協會、學校),福仁里、興和里,桃園市大溪區興福社區發展協會,桃園市大溪區福仁里仁愛路11號,24.8851249,121.2857261
其他(人民團體、社區發展協會、學校),一心里、田心里,桃園市大溪區下田心社區發展協會,桃園市大溪區一新里民權東路94巷29號,24.8813572,121.2912414
其他(人民團體、社區發展協會、學校),一心里、一德里、田心里、興和里、福仁里、月眉里、永福里、美華里,財團法人雙福社會福利慈善事業基金會（認知休憩站）,桃園市大溪區一心里文化路161號,24.8778394,121.290521
其他(人民團體、社區發展協會、學校),石磊里、赤欄里、後湖里,桃園市新屋區石磊社區發展協會,桃園市新屋區石磊里三民路二段276號,24.9931067,121.0793911
其他(人民團體、社區發展協會、學校),頭洲里、中壢區過嶺里,桃園市新屋區頭洲社區發展協會,桃園市新屋區頭洲里中山東路2段668巷48號2樓,24.9724529,121.127571
其他(人民團體、社區發展協會、學校),下埔里,桃園市新屋區下埔社區發展協會,桃園市新屋區下埔里東興路2段1100號,25.0076028,121.0446521
其他(人民團體、社區發展協會、學校),埔頂里,桃園市新屋區埔頂社區發展協會,桃園市新屋區埔頂里埔頂路279巷50號,24.9551243,121.1106361
其他(人民團體、社區發展協會、學校),大坡里,桃園市新屋區大坡社區發展協會,桃園市新屋區大坡里國校路1號,24.9593212,121.0421102
其他(人民團體、社區發展協會、學校),永興里、永安里、下埔里,桃園市新屋區永興社區發展協會,桃園市新屋區永興里永慶一路273號,25.0042562,121.0301168
其他(人民團體、社區發展協會、學校),社子里,桃園市新屋區社子社區發展協會,桃園市新屋區社子里社福路235號,24.956797,121.0816765
其他(人民團體、社區發展協會、學校),永安里,桃園市新屋區永安社區發展協會,桃園市新屋區永安里保生路55號,24.9883033,121.0278546
其他(人民團體、社區發展協會、學校),後庄里,桃園市新屋區後庄社區發展協會,桃園市新屋區後庄里5鄰東福路2段515號,24.9486401,121.007381
其他(人民團體、社區發展協會、學校),笨港里,桃園市新屋區笨港社區發展協會,桃園市新屋區笨港里聖賢路39號,24.9752513,121.0191751
其他(人民團體、社區發展協會、學校),後湖里,桃園市新屋區後湖社區發展協會,桃園市新屋區後湖里三民路1段68號,24.972138,121.099484
其他(人民團體、社區發展協會、學校),?榔里,桃園市新屋區?榔社區發展協會,桃園市新屋區?榔里保安路439號,24.9714058,121.0505978
其他(人民團體、社區發展協會、學校),深圳里,桃園市新屋區深圳社區發展協會,桃園市新屋區深圳里4鄰20-5號,24.956586,121.0077058
其他(人民團體、社區發展協會、學校),下田里,桃園市新屋區下田社區發展協會,桃園市新屋區下田里中山西路2段780號,24.9831352,121.0595326
其他(人民團體、社區發展協會、學校),東明里,桃園市新屋區東明社區發展協會,桃園市新屋區東明里3鄰5號,24.9717083,121.0865346
其他(人民團體、社區發展協會、學校),石牌里,桃園市新屋區石牌社區發展協會,桃園市新屋區東興路二段568號,25.0028964,121.0523893
其他(人民團體、社區發展協會、學校),九斗里、清華里、新屋里、埔頂里,桃園市新屋區老人會,桃園市新屋區九斗里2鄰五谷路775巷45號,24.9606723,121.1192582
其他(人民團體、社區發展協會、學校),新生里,桃園市新屋區新生社區發展協會,桃園市新屋區新生里中山路370號2樓,24.9728844,121.1041169
其他(人民團體、社區發展協會、學校),龍星里、中正里、上華里、龍潭里,桃園市龍潭區大中正社區發展協會,桃園市龍潭區龍星里中正路204號,24.8646052,121.2168242
其他(人民團體、社區發展協會、學校),三和里,桃園市龍潭區三和社區發展協會,桃園市龍潭區三和里番子窩路5號,24.857088,121.173306
其他(人民團體、社區發展協會、學校),三林里、富林里、建林里,桃園市龍潭區三林社區發展協會,桃園市龍潭區三林里富華街三林段395巷140號-1,24.8383448,121.2270874
其他(人民團體、社區發展協會、學校),武漢里、中興里、東興里、北興里、黃唐里,桃園市龍潭區中興社區發展協會,桃園市龍潭區武漢里武漢路98號3樓,24.8714365,121.2344735
其他(人民團體、社區發展協會、學校),聖德里、八德里,桃園市龍潭區八德社區發展協會,桃園市龍潭區聖德里湧光路533號,24.8820866,121.1951038
其他(人民團體、社區發展協會、學校),中正里、上華里、龍星里、上林里,財團法人台灣省桃園縣中國基督教靈糧堂世界佈道會中壢靈糧堂(龍潭活水靈糧堂),桃園市龍潭區中正里龍華路440號,24.8568407,121.217375
里辦公處,三坑里,桃園市龍潭區三坑里辦公處,桃園市龍潭區三坑里三坑老街66號,24.8444473,121.2485009
里辦公處,上華里,桃園市龍潭區上華里辦公處,桃園市龍潭區上華里大順路209號,24.8507941,121.2178753
里辦公處,百年里,桃園市龍潭區百年里辦公處,桃園市龍潭區百年二街15巷21號B1,24.8779421,121.209178
里辦公處,高原里、三和里、高平里,桃園市龍潭區高原里辦公處,桃園市龍潭區高原里中原路三段135號,24.8265076,121.1920408
里辦公處,中興里、東興里、武漢里、北興里、黃唐里,桃園市龍潭區中興里辦公處,桃園市龍潭區中興里中興路240巷38號,24.8756266,121.2347724
里辦公處,佳安里,桃園市龍潭區佳安里辦公處,桃園市龍潭區佳安里佳安西路2巷2號,24.8444927,121.2053963
里辦公處,八德里,桃園市龍潭區八德里辦公處,桃園市龍潭區八德里梅龍路2號,24.8734995,121.2019584
其他(人民團體、社區發展協會、學校),大平里、三坑里,桃園市龍潭區石門社區發展協會,桃園市龍潭區大平里永平路80號,24.8288697,121.2461549
其他(人民團體、社區發展協會、學校),龍潭區、三水里、三和里、新竹縣、東平里、巨埔里、新北里,桃園市龍潭區三水社區發展協會,龍新路三和段1420巷137號,24.8442878,121.1526006
其他(人民團體、社區發展協會、學校),上林里,桃園市龍潭區上林社區發展協會,桃園市龍潭區上林里金龍路112巷51號,24.8555299,121.2120385
其他(人民團體、社區發展協會、學校),高平里,桃園市龍潭區高平社區發展協會,桃園市龍潭區高平里龍源路11號,24.8267527,121.2065369
其他(人民團體、社區發展協會、學校),九龍里、武漢里、祥和里,桃園市龍潭區九龍社區發展協會,桃園市龍潭區九龍里五福街330號,24.8641792,121.2255095
其他(人民團體、社區發展協會、學校),中山里,桃園市龍潭區中山社區發展協會,桃園市龍潭區中山里華南路1-1號,24.847782,121.2462732
其他(人民團體、社區發展協會、學校),佳安里、三坑里、上華里、建林里,桃園市龍潭區佳安社區發展協會,桃園市龍潭區佳安里中正路佳安段403號,24.8489257,121.244378
其他(人民團體、社區發展協會、學校),黃唐里、永興里,桃園市龍潭區黃唐社區發展協會,桃園市龍潭區黃唐里武中路10號,24.8444927,121.2053963
其他(人民團體、社區發展協會、學校),凌雲里、龍祥里,桃園市龍潭區凌雲社區發展協會,桃園市龍潭區凌雲里干城路19巷28號,24.8687908,121.2069458
其他(人民團體、社區發展協會、學校),烏林里、烏樹林里,桃園市龍潭區烏林社區發展協會,桃園市龍潭區中豐路401號,24.8811007,121.209735
其他(人民團體、社區發展協會、學校),觀音里,桃園市觀音區觀音社區發展協會,桃園市觀音區觀音里中山路8號,25.0366488,121.0819564
其他(人民團體、社區發展協會、學校),白玉里,桃園市觀音區白玉社區發展協會,桃園市觀音區白玉里玉林路一段180號,25.0395862,121.0853033
其他(人民團體、社區發展協會、學校),新坡里,桃園市觀音區新坡社區發展協會,桃園市觀音區新坡里新生路76巷5弄2號,25.0144839,121.1366473
其他(人民團體、社區發展協會、學校),保障里、草漯里、塔腳里,桃園市觀音區保障社區發展協會,桃園市觀音區保障里保障三路298巷8號,25.0654319,121.1489786
其他(人民團體、社區發展協會、學校),保生里,桃園市觀音區保生社區發展協會,桃園市觀音區保生里保成路32號,25.0157507,121.0559849
其他(人民團體、社區發展協會、學校),塔腳里,桃園市觀音區塔腳社區發展協會,桃園市觀音區塔腳里廣大路1085號,25.0442181,121.1638717
其他(人民團體、社區發展協會、學校),草漯里、草新里,桃園市觀音區草漯社區發展協會,桃園市觀音區草漯里忠孝路82號,25.0499974,121.142512
其他(人民團體、社區發展協會、學校),廣興里、坑尾里,桃園市觀音區廣興社區發展協會,桃園市觀音區廣興里中山路1段413號,25.0355953,121.0836245
其他(人民團體、社區發展協會、學校),草新里,桃園市觀音區草新社區發展協會,桃園市觀音區草新里新生路1148號,25.0386541,121.1440671
其他(人民團體、社區發展協會、學校),大堀里,桃園市觀音區大堀社區發展協會,桃園市觀音區大堀里新華路2段72號,25.0032043,121.1268472
里辦公處,上大里、富源里、中壢區過嶺里,桃園市觀音區上大里辦公處,桃園市觀音區上大里大湖路一段510號,24.9781094,121.1475466
里辦公處,大同里,桃園市觀音區大同里辦公處,桃園市觀音區大同里新富路一段595號,25.0036309,121.1379111
里辦公處,崙坪里,桃園市觀音區崙坪里辦公處,桃園市觀音區崙坪里8鄰忠愛路2段157號,24.9991439,121.1583984
其他(人民團體、社區發展協會、學校),藍埔里、坑尾里,桃園市觀音區藍埔社區發展協會,桃園市觀音區藍埔里新華路一段711號,24.9968693,121.116643
其他(人民團體、社區發展協會、學校),廣福里、大同里、草漯里,桃園市觀音區廣福社區發展協會,桃園市觀音區廣福里福山路2段403巷6號,25.0277659,121.153825
其他(人民團體、社區發展協會、學校),樹林里、草漯里,桃園市觀音區樹林社區發展協會,桃園市觀音區樹林里泰安街209號,25.050683,121.1231633
其他(人民團體、社區發展協會、學校),富林里,桃園市觀音區富林社區發展協會,桃園市觀音區富林里大觀路三段463號,25.0363208,121.1206255
其他(人民團體、社區發展協會、學校),富源里、上大里,桃園市觀音區富源社區發展協會,桃園市觀音區富源里新富路801巷65號,24.9748565,121.1381531
里辦公處,普仁里,桃園市中壢區普仁里辦公處,桃園市中壢區普仁里日新路20號,24.9540583,121.2386621
里辦公處,光明里,桃園市中壢區光明里辦公處,桃園市中壢區光明里新明路223號,24.9622244,121.2169784
里辦公處,龍平里、龍安里、龍冬里、龍友里、忠貞里,桃園市中壢區龍平里辦公處,桃園市中壢區龍平里龍平七街30號,24.9308993,121.2554881
里辦公處,忠義里,桃園市中壢區忠義里辦公處,桃園市中壢區忠義里忠義路69之1號,24.9621603,121.2392455
里辦公處,自立里,桃園市中壢區自立里辦公處,桃園市中壢區自立里自立五街82號2樓,24.9663424,121.251646
里辦公處,華愛里、仁美里、仁愛里,桃園市中壢區華愛里辦公處,桃園市中壢區華愛里華勛街37巷11號1樓,24.9518235,121.2578817
里辦公處,福德里、內壢里、成功里,桃園市中壢區福德里辦公處,桃園市中壢區福德里9鄰成功路79巷54號,24.9752992,121.2586288
里辦公處,內厝里、芝芭里、月眉里,桃園市中壢區內厝里辦公處,桃園市中壢區內厝里9鄰崇德路99號,24.9888234,121.1813294
里辦公處,仁和里、仁德里、華愛里、仁祥里、華勛里,桃園市中壢區仁和里辦公處,桃園市中壢區仁和里17鄰仁德四街96號,24.9527708,121.2620584
里辦公處,中山里,桃園市中壢區中山里辦公處,桃園市中壢區中山里榮民路396號,24.9617283,121.2616131
里辦公處,普義里,桃園市中壢區普義里辦公處,桃園市中壢區普義里立和路29號,24.9589752,121.2307895
里辦公處,仁祥里,桃園市中壢區仁祥里辦公處,桃園市中壢區仁祥里華祥一街21號,24.9578929,121.227379
里辦公處,龍岡里、龍東里,桃園市中壢區龍岡里辦公處,桃園市中壢區龍岡里龍岡路3段742號,24.9262174,121.2433095
里辦公處,龍德里,桃園市中壢區龍德里辦公處,桃園市中壢區龍德里龍吉二街153號,24.9363953,121.2368487
里辦公處,龍慈里、龍昌里、至善里,桃園市中壢區龍慈里辦公處,桃園市中壢區龍慈里後寮一路230號,24.9380522,121.2463008
其他(人民團體、社區發展協會、學校),興仁里,桃園市中壢區興仁社區發展協會,桃園市中壢區興仁里榮光街11號,24.9654618,121.2620428
其他(人民團體、社區發展協會、學校),復興里、文化里,中華光明之家共生家園協會(復興據點),桃園市中壢區復興里10鄰長樂街39號,24.9777978,121.2497058
其他(人民團體、社區發展協會、學校),永福里、忠福里、幸福里,桃園市中壢區永福社區發展協會,桃園市中壢區永福里南園二路90號,24.9720159,121.2333325
其他(人民團體、社區發展協會、學校),東興里、健行里,桃園市中壢區東興社區發展協會,桃園市中壢區東興里中北路二段76巷10號,24.9499161,121.2252159
其他(人民團體、社區發展協會、學校),中央里,桃園市松鶴會,桃園區中壢區中央里元化路182-2號,24.9601041,121.227427
其他(人民團體、社區發展協會、學校),中央里、普慶里、普義里,桃園市中壢老人會,桃園市中壢中央里區元化路182-2號2樓,24.9601041,121.227427
其他(人民團體、社區發展協會、學校),龍興里,桃園市中壢區龍興社區發展協會,桃園市中壢區龍興里13鄰龍岡路3段37巷92弄102號,24.9392125,121.2321902
其他(人民團體、社區發展協會、學校),洽溪里、青埔里、芝芭里,桃園市中壢區洽溪社區發展協會,桃園市中壢區洽溪里民權路4段546號,25.0087636,121.2020347
其他(人民團體、社區發展協會、學校),過嶺里、高雙里,桃園市中壢區過嶺社區發展協會,桃園市中壢區過嶺里雙福路9號,24.9600529,121.1767211
其他(人民團體、社區發展協會、學校),山東里,桃園市中壢區山東社區發展協會,桃園市中壢區山東里9鄰山東路1010號,25.0159863,121.1722655
其他(人民團體、社區發展協會、學校),信義里、明德里、普忠里,財團法人桃園市亮詮公益慈善基金會,桃園市中壢區信義里嘉善街37-39號,24.9516414,121.2338018
其他(人民團體、社區發展協會、學校),林森里、新興里、明德里、健行里、東興里,社團法人台灣樂活服務發展協會(執信據點),桃園市中壢區林森里執信一街167號,24.9447132,121.2267278
其他(人民團體、社區發展協會、學校),龍慈里,社團法人台灣樂活服務發展協會(豐收據點),桃園市中壢區龍慈里後寮一路320號,24.9360163,121.2464053
其他(人民團體、社區發展協會、學校),舊明里,財團法人台灣省桃園縣中華基督教中壢浸信會,桃園市中壢區舊明里民族路53號,24.955691,121.21385
其他(人民團體、社區發展協會、學校),信義里、正義里、水尾里、明德里、仁福里、平鎮區貿易里,財團法人台灣省中國基督教靈糧世界佈道會中壢靈糧堂,桃園市中壢區信義里杭州路71號,24.9511081,121.2354062
其他(人民團體、社區發展協會、學校),新明里、光明里、永光里,社團法人桃園市濟世功德協進會(中壢站),桃園市中壢區光明里明德路178號2樓,24.959406,121.216931
其他(人民團體、社區發展協會、學校),石頭里,社團法人中華民國國際慈善文教協會,桃園市中壢區石頭里永樂路33號,24.9528762,121.222319
其他(人民團體、社區發展協會、學校),普強里,社團法人台灣樂活服務發展協會(普強據點),桃園市中壢普強里區民有街17號1樓,24.9530723,121.2381127
其他(人民團體、社區發展協會、學校),明德里、信義里、正義里、新興里,財團法人台灣省新竹縣基督教改革宗長老會竹東教會,桃園市中壢區明德里吉長街34號,24.9465039,121.2306259
其他(人民團體、社區發展協會、學校),復華里,桃園市中壢區復華社區發展協會,桃園市中壢區復華里復華街188號,24.9729133,121.2482174
其他(人民團體、社區發展協會、學校),林森里、新興里、振興里,桃園市中壢區新振社區發展協會,桃園市中壢區林森路90號(南區老人文康活動中心),24.9466287,121.2276512
其他(人民團體、社區發展協會、學校),新街里、金華里、水尾里、興國里,桃園市樂活銀髮族協會,桃園市中壢區新街里環北路398號15樓-1,24.9654722,121.2263378
其他(人民團體、社區發展協會、學校),忠福里、幸福里,社團法人桃園市幸福家庭培力協會,桃園市中壢區忠福里福安二街50號1樓,24.9686888,121.2320003
其他(人民團體、社區發展協會、學校),石頭里,社團法人桃園市愛鄰舍協會（復興據點）,桃園市中壢區石頭里13鄰復興路161號3樓,24.9538364,121.2236603
其他(人民團體、社區發展協會、學校),五福里、廣興里,社團法人桃園市愛鄰舍協會（新明據點）,桃園市中壢區五福里中正路447號4樓,24.9565163,121.2141156
其他(人民團體、社區發展協會、學校),忠福里,桃園市中壢區忠福社區發展協會,桃園市中壢區忠福里華廈路158號,24.9731556,121.2297268
其他(人民團體、社區發展協會、學校),月眉里,桃園市中壢區月眉社區發展協會,桃園市中壢區月眉里月桃路828號,25.0103118,121.1844323
其他(人民團體、社區發展協會、學校),,銀髮族(中壢站),桃園市中壢區自強里榮民路48號,24.9695159,121.2606098
里辦公處,長庚里、樂善里,桃園市龜山區長庚里辦公處,桃園市龜山區長庚里長庚醫護新村80號B1,25.0577498,121.3825146
里辦公處,山頂里,桃園市龜山區山頂里辦公處,桃園市龜山區山頂里明興街36號,24.9862567,121.3303499
里辦公處,新嶺里,桃園市龜山區新嶺里辦公處,桃園市龜山區新嶺里寶石街9號,25.0004539,121.3659674
其他(人民團體、社區發展協會、學校),南上里,桃園市龜山區南上社區發展協會,桃園市龜山區南上里民生北路一段386-1號,25.041185,121.2998991
其他(人民團體、社區發展協會、學校),幸福里,桃園市龜山區幸福社區發展協會,桃園市龜山區幸福里幸福1街38號之1,24.988225,121.3343712
其他(人民團體、社區發展協會、學校),龜山里、大同里、中興里、陸光里、精忠里、楓樹里、兔坑里,社團法人桃園市社會服務關懷協會(龜山據點),桃園市龜山區自強東路164號1樓,24.9958282,121.3433294
其他(人民團體、社區發展協會、學校),嶺頂里、新嶺里,桃園市龜山區嶺頂社區發展協會,桃園市龜山區嶺頂里萬壽路二段6巷61號,25.0030466,121.3646832
其他(人民團體、社區發展協會、學校),大湖里、大華里、大崗里、公西里、文化里,桃園市龜山區大湖社區發展協會,桃園市龜山區大湖里忠義路二段638巷5號,25.0572356,121.358407
其他(人民團體、社區發展協會、學校),大華里,社團法人桃園市龜山區傳愛社區關懷協會,桃園市龜山區大華里文化七路118巷7號,25.0508328,121.3662689
其他(人民團體、社區發展協會、學校),兔坑里,桃園市龜山區兔坑社區發展協會,桃園市龜山區兔坑里大同路918號；兔坑里幸美九街35號,24.9879762,121.3581972
其他(人民團體、社區發展協會、學校),陸光里,桃園市龜山區陸光社區發展協會,桃園市龜山區陸光里陸光路79號1樓,24.9955031,121.3318651
其他(人民團體、社區發展協會、學校),福源里,桃園市家庭照顧者關懷協會,桃園市龜山區福源里大同路356巷62弄59-1號,24.9844207,121.3472162
其他(人民團體、社區發展協會、學校),新興里,桃園市龜山區貿商社區發展協會,桃園市龜山區新興里中興路196巷2號1樓,24.990121,121.333649
其他(人民團體、社區發展協會、學校),龍華里,桃園市龜山區龍華社區發展協會,桃園市龜山區龍華里萬壽路一段422巷22弄43-1號,25.0177656,121.4007703
其他(人民團體、社區發展協會、學校),大同里,桃園市龜山區大同社區發展協會,桃園市龜山區大同里明德路203巷10號,24.9912429,121.3422725
其他(人民團體、社區發展協會、學校),舊路里,桃園市龜山區舊路社區發展協會,桃園市龜山區舊路里振興路749巷1弄18號,25.0180686,121.3610426
其他(人民團體、社區發展協會、學校),大坑里、南美里、南上里,社團法人中華關聖帝君文化交流協會,桃園市龜山區大坑里大坑路三段150巷6弄1號,25.0549378,121.3379214
其他(人民團體、社區發展協會、學校),新路里、中興里、幸福里,社團法人桃園市失能老人關懷協會（認知休憩站）,桃園市八德區樹仁三街601號,24.975134,121.309724
里辦公處,南興里,桃園市蘆竹區南興里辦公處,桃園市蘆竹區南興里南福街100號,25.0403867,121.2928468
里辦公處,長興里,桃園市蘆竹區長興里辦公處,桃園市蘆竹區長興里長興路四段75-1號,25.0667802,121.2696902
里辦公處,山鼻里,桃園市蘆竹區山鼻里辦公處,桃園市蘆竹區山鼻里長興路二段26巷1號,25.0668825,121.2911966
其他(人民團體、社區發展協會、學校),宏竹里,桃園市蘆竹區宏竹社區發展協會,桃園市蘆竹區宏竹里大華街101號,25.0402952,121.2565529
其他(人民團體、社區發展協會、學校),南崁里,桃園市蘆竹區南崁社區發展協會,桃園市蘆竹區南崁里南崁路152號2樓,25.0472557,121.294755
其他(人民團體、社區發展協會、學校),上興里、中興里,桃園市中興愛鄰服務協會,桃園市蘆竹區上興里上興路188號(對面),25.0189044,121.2611125
其他(人民團體、社區發展協會、學校),羊稠里,社團法人台灣樂活服務發展協會(蘆竹法國號),桃園市蘆竹區羊稠里中山路72號6樓,25.0548899,121.2992413
其他(人民團體、社區發展協會、學校),南榮里、南興里、興榮里,桃園市蘆竹區南榮社區發展協會,桃園市蘆竹區南榮里桃園街9號,25.0427929,121.2934318
其他(人民團體、社區發展協會、學校),錦興里、興榮里,桃園市蘆竹區錦興社區發展協會,桃園市蘆竹區錦興里光明路二段143巷29號,25.0481972,121.2866201
其他(人民團體、社區發展協會、學校),瓦窯里,桃園市蘆竹區瓦窯社區發展協會,桃園市蘆竹區瓦窯里仁愛路一段2號,25.0507131,121.2934588
其他(人民團體、社區發展協會、學校),營盤里、營福里,桃園市蘆竹區營盤社區發展協會,桃園市蘆竹區營福里中山路108巷21號,25.0564227,121.2992276
其他(人民團體、社區發展協會、學校),海湖里,桃園市蘆竹區海湖社區發展協會,桃園市蘆竹區海湖里海湖東路217號,25.0784359,121.2969674
其他(人民團體、社區發展協會、學校),順興里,桃園市蘆竹區順興社區發展協會,桃園市蘆竹區順興里南昌路36號,25.0418068,121.2882166
其他(人民團體、社區發展協會、學校),蘆竹里,桃園市蘆竹區蘆竹社區發展協會, (三)桃園市蘆竹區蘆竹里南青路850巷50號,25.0527783,121.2625919
其他(人民團體、社區發展協會、學校),外社里,桃園市蘆竹區外社社區發展協會,桃園市蘆竹區外社里山林路二段490號,25.0821089,121.3059508
其他(人民團體、社區發展協會、學校),中山里,桃園市蘆竹區中山社區發展協會,桃園市蘆竹區中山里福祿一街40號1樓,25.0553931,121.2970404
其他(人民團體、社區發展協會、學校),五福里、福祿里,桃園市蘆竹區五福社區發展協會,桃園市蘆竹區五福里福祿五街18號,25.0535806,121.2958501
其他(人民團體、社區發展協會、學校),內厝里,桃園市蘆竹區內厝社區發展協會,桃園市蘆竹區內厝里南山路2段394巷67號,25.0715423,121.287584
其他(人民團體、社區發展協會、學校),興榮里,歡喜學堂推廣協會(蘆竹區興榮里),桃園市蘆竹區興榮里中正路287號3樓之2,25.0476014,121.2916803
其他(人民團體、社區發展協會、學校),正興里,歡喜學堂推廣協會(蘆竹區正興里),桃園市蘆竹區正興里奉化路104巷45弄11號,25.0389082,121.2880416
其他(人民團體、社區發展協會、學校),山腳里,桃園市蘆竹區山腳社區發展協會,桃園市蘆竹區山腳里南山路三段357巷10號,25.0867288,121.2860617
其他(人民團體、社區發展協會、學校),新興里,桃園市蘆竹區新興社區發展協會,桃園市蘆竹區新興里大竹路一巷500弄18號,25.0044315,121.2757657
其他(人民團體、社區發展協會、學校),坑口里,桃園市蘆竹區坑口里回饋關懷公益協會,週三:桃園市蘆竹區坑口里坑?路661巷2號,25.1055557,121.2749531
其他(人民團體、社區發展協會、學校),吉祥里,桃園市蘆竹區吉祥社區發展協會,桃園市蘆竹區吉祥里吉林路105號,25.0495458,121.2984647
其他(人民團體、社區發展協會、學校),坑子里,桃園市蘆竹區坑子社區發展協會,桃園市蘆竹區坑子里2鄰山林路三段102巷9號,25.0776742,121.3162726
其他(人民團體、社區發展協會、學校),中福里、中興里、新興里,桃園市蘆竹區中福社區發展協會,桃園市蘆竹區中福里龍安街二段985號,25.0057748,121.2586493
其他(人民團體、社區發展協會、學校),長壽里、吉祥里,歡喜學堂推廣協會(認知休憩站),桃園市蘆竹區吉林路156巷13號,25.0502756,121.2993306
里辦公處,永平里、梅溪里、青山里,桃園市楊梅區永平里辦公處,桃園市楊梅區中山北路2段268巷16號,24.9112116,121.1734339
其他(人民團體、社區發展協會、學校),金龍里,桃園市楊梅區金龍社區發展協會,桃園市楊梅區金龍里中興路236-1號,24.914424,121.1864277
其他(人民團體、社區發展協會、學校),梅溪里、瑞溪里、光華里、瑞塘里、三民里,財團法人臺北市阿瑪社會福利慈善事業基金會(中山據點),桃園市楊梅區梅溪里中山北路2段191號,24.9090448,121.1719849
其他(人民團體、社區發展協會、學校),紅梅里、秀才里、梅新里,桃園市楊梅志願服務協會,桃園市楊梅區梅溪里校前路5號,24.9056321,121.1441231
其他(人民團體、社區發展協會、學校),三民里、金溪里、裕成里,社團法人桃園市健康家庭教育協會,桃園市楊梅區三民里中山北路2段87巷11號1樓,24.9075978,121.1694078
其他(人民團體、社區發展協會、學校),楊明里、梅溪里、大同里,社團法人台灣樂活服務發展協會(一品據點),桃園市楊梅區楊明里新農街429巷32弄2號,24.9129679,121.1582522
其他(人民團體、社區發展協會、學校),光華里、仁美里、埔心里,社團法人台灣樂活服務發展協會(榮耀堂據點),桃園市楊梅區光華里新興街125巷42號,24.9161194,121.1836793
其他(人民團體、社區發展協會、學校),紅梅里、梅新里、中山里、永寧里、大同里,社團法人台灣樂活服務發展協會（宣聖堂）,桃園市楊梅區紅梅里校前路32巷25-1號,24.9040257,121.1452086
其他(人民團體、社區發展協會、學校),仁美里、埔心里、高上里、平鎮區平鎮里、鎮興里,財團法人臺北市阿瑪社會福利慈善事業基金會(永美據點),桃園市楊梅區仁美里永美路15號,24.9222942,121.1870755
其他(人民團體、社區發展協會、學校),瑞塘里、埔心里、四維里,桃園市城鄉發展婦女協會,桃園市楊梅區瑞塘里萬福街119號,24.9123865,121.1782984
其他(人民團體、社區發展協會、學校),大同里、中山里,桃園市楊梅區大合社區發展協會,楊梅區大同里9鄰自立街2號,24.911004,121.1491171
其他(人民團體、社區發展協會、學校),裕成里、裕新里,桃園市楊梅區山城社區發展協會,桃園市楊梅區裕成里裕成路170巷16號,24.8983342,121.1601975
其他(人民團體、社區發展協會、學校),四維里、瑞塘里、瑞溪里、埔心里、光華里、三民里、金龍里,財團法人臺北市阿瑪社會福利慈善基金會（四維據點）,桃園市楊梅區四維里四維路118號,24.9130295,121.1811464
其他(人民團體、社區發展協會、學校),瑞原里、富豐里,桃園市楊梅區瑞原社區發展協會,桃園市楊梅區瑞原里民豐路506-1號,24.9295908,121.1118478
其他(人民團體、社區發展協會、學校),上田里,桃園市楊梅區上田社區發展協會,桃園市楊梅區上田里和平路87號,24.9370905,121.1263549
其他(人民團體、社區發展協會、學校),豐野里、富岡里、新屋區望間里,中華光明之家共生家園協會(豐野據點),桃園市楊梅區豐野里中正路265號,24.9242108,121.1366715
其他(人民團體、社區發展協會、學校),頭湖里、三湖里,桃園市楊梅區三湖社區發展協會,桃園市楊梅區三湖里楊湖路2段491號,24.9120201,121.1084369
其他(人民團體、社區發展協會、學校),水美里,桃園市楊梅區水美社區發展協會,桃園區楊梅區水美里楊新路2段2-1號,24.9189988,121.1370072
其他(人民團體、社區發展協會、學校),上湖里、三湖里,桃園市楊梅區上湖社區發展協會,桃園市楊梅區上湖里楊湖路3段679-1號,24.912026,121.0824825
其他(人民團體、社區發展協會、學校),東流里,桃園市楊梅區大東社區發展協會,桃園市楊梅區東流里甡甡路440號,24.895851,121.12953
其他(人民團體、社區發展協會、學校),豐野里,桃園市楊梅區豐野社區發展協會,桃園市楊梅區豐野里4鄰信義街83巷25弄23號,24.9353748,121.0842962
其他(人民團體、社區發展協會、學校),永寧里、梅新里,桃園市楊梅區永揚社區發展協會,桃園市楊梅區永寧里校前路324巷148號,24.8979831,121.1481731
其他(人民團體、社區發展協會、學校),楊梅里、楊江里、紅梅里、梅新里,社團法人中華民國紅十字會桃園市分會,桃園市楊梅區楊梅里大模街10號2樓,24.9128991,121.1446149
其他(人民團體、社區發展協會、學校),高榮里、新榮里,桃園市楊梅區高榮社區發展協會,桃園市楊梅區高榮里幼獅路2段390-2號,24.9373697,121.1653116
其他(人民團體、社區發展協會、學校),員本里、瑞原里,桃園市楊梅區員本社區發展協會,桃園市楊梅區員本里2鄰員本路532-1號,24.9383134,121.1061714
其他(人民團體、社區發展協會、學校),大平里、紅梅里、秀才里,桃園市楊梅大平友善照護協會,桃園市楊梅區大平里秀才路178巷2號,24.901896,121.1408561
其他(人民團體、社區發展協會、學校),建安里,桃園市平鎮區建安社區發展協會,桃園市平鎮區建安里平東路688號,24.9125722,121.2386483
其他(人民團體、社區發展協會、學校),北勢里、金陵里、北華里,社團法人台灣樂活服務發展協會(行道會據點),桃園市平鎮區北勢里莒光路1號2、3樓,24.9470528,121.2224103
其他(人民團體、社區發展協會、學校),新勢里,桃園市平鎮區守望相助推廣協會,桃園市平鎮區新勢里延平路一段162號,24.9508172,121.2163465
其他(人民團體、社區發展協會、學校),北華里、北安里、北勢里、金陵里,桃園市平鎮區北勢社區發展協會,桃園市平鎮區北華里振平街153號,24.9424973,121.2206706
其他(人民團體、社區發展協會、學校),東社里,桃園市平鎮區東社社區發展協會,桃園市平鎮區東社里圳南路50巷23號,24.9224473,121.2449266
其他(人民團體、社區發展協會、學校),南勢里、平南里,桃園市平鎮區南勢社區發展協會,桃園市平鎮區南勢里中豐路南勢二段317-1號,24.9108739,121.2114906
其他(人民團體、社區發展協會、學校),北貴里、北富里,桃園市平鎮區獅子林社區發展協會,桃園市平鎮區北貴里大仁街46號,24.928176,121.2252771
其他(人民團體、社區發展協會、學校),湧光里、莊敬里,社團法人桃園市愛鄰舍協會(湧光據點),桃園市平鎮區湧光里湧光路2巷13弄15號1樓,24.8987545,121.2101711
其他(人民團體、社區發展協會、學校),鎮興里、平鎮里、仁美里,社團法人桃園市安平鎮庄文化協會,桃園市平鎮區鎮興里中興路平鎮段229號,24.905638,121.1942469
其他(人民團體、社區發展協會、學校),高雙里、雙連里,桃園市平鎮區高連社區發展協會,桃園市平鎮區高雙里高雙路80號,24.9550918,121.1890124
其他(人民團體、社區發展協會、學校),北興里、北貴里、北富里,社團法人桃園市地球村代間藝術教育促進會,桃園市平鎮區北貴里正義路70號,24.9298503,121.2226484
其他(人民團體、社區發展協會、學校),義民里,桃園市平鎮區義民社區發展協會,桃園市平鎮區義民里復旦路2段23巷8號,24.9475403,121.2050324
其他(人民團體、社區發展協會、學校),東勢里,桃園市平鎮區東勢社區發展協會,桃園市平鎮區東勢里金陵路五段55號,24.9103443,121.2313254
其他(人民團體、社區發展協會、學校),平鎮里、鎮興里,桃園市平鎮區平鎮社區發展協會,桃園市平鎮區平鎮里南平路2段516巷進去800公尺,24.9246065,121.1943131
其他(人民團體、社區發展協會、學校),北興里,桃園市平鎮區北興社區發展協會,桃園市平鎮區北興里金陵路2段353號,24.9374512,121.2246957
其他(人民團體、社區發展協會、學校),華安里、東安里、新安里,桃園市平鎮區三安社區發展協會, 桃園市平鎮區華安里平東路246巷16弄2號,24.9161611,121.2485775
里辦公處,福林里,桃園市平鎮區福林里辦公處,桃園市平鎮區福林里東豐路326號,24.901819,121.2192394
里辦公處,平興里、宋屋里、義民里,桃園市平鎮區平興里辦公處,桃園市平鎮區平興里廣泰路85號,24.9455788,121.2044529
里辦公處,北勢里,桃園市平鎮區北勢里辦公處,桃園市平鎮區北勢里和平路52號,24.948894,121.221415
里辦公處,雙連里,桃園市平鎮區雙連里辦公處,桃園市平鎮區雙連里民族路雙連二段118巷22號,24.9601449,121.1831372
里辦公處,復興里、復旦里、廣達里,桃園市平鎮區復興里辦公處,桃園市平鎮區復興里復興街55號,24.9543327,121.2049137
里辦公處,新榮里、新勢里,桃園市平鎮區新榮里辦公處,桃園市平鎮區新榮里振興西路112-1號,24.9457402,121.2144761
里辦公處,義興里,桃園市平鎮區義興里辦公處,桃園市平鎮區義興里義興街80號,24.9497783,121.2093191
里辦公處,莊敬里,桃園市平鎮區莊敬里辦公處,桃園市平鎮區莊敬里自強街100號,24.9041552,121.2148874
里辦公處,貿易里、忠貞里、龍興里,桃園市平鎮區貿易里辦公處,桃園市平鎮區貿易里貿五路36號,24.9273644,121.2528022
里辦公處,廣仁里,桃園市平鎮區廣仁里辦公處,"1.桃園市平鎮區廣仁里廣南路151號
 2.桃園市平鎮區廣仁里新光路二段9巷62弄5、7號(新光分站)",24.9399186,121.206604
里辦公處,廣興里,桃園市平鎮區廣興里辦公處,"1.桃園市平鎮區廣興里明德北路11號
 2.桃園市平鎮區廣興里明德北路8-1號",24.9532394,121.2145357
其他(人民團體、社區發展協會、學校),新富里,桃園市銀髮族協會,桃園市平鎮區新富里環南路三段88號(平鎮社教文化中心),24.9397176,121.2177667
其他(人民團體、社區發展協會、學校),三民里,財團法人台灣基督長老教會泰雅爾中會三民教會,桃園市復興區三民里19鄰基國派路511巷31號,24.836748,121.344127
其他(人民團體、社區發展協會、學校),高平里、上林里、中正里、富林里、,財團法人新生醫護管理專科學校,桃園市龍潭區高平里中豐路高平段418號,24.8319108,121.2086908
診所、護理機構,楊梅里,民安診所,桃園市楊梅區楊梅里大成路175號,24.9124462,121.1457028
診所、護理機構,永平里,姜博文診所,桃園市楊梅區永平里永美路335號,24.9170199,121.182186
長期照顧中心,北貴里,財團法人桃園市私立國宏老人長期照顧中心(養護型),桃園市平鎮區北貴里大勇街86號,24.9284999,121.2237309
醫院,普慶里,長慎醫院,桃園市中壢區普慶里中山東路二段525號1樓,24.9468469,121.2461445
診所、護理機構,莊敬里,活力診所,桃園市中壢區莊敬里莊敬路160號2樓,24.9680255,121.2574098
診所、護理機構,大忠里、大智里,旭登護理之家,桃園市八德區大忠里永福街116號,24.9621265,121.3029667
診所、護理機構,高明里、高城里、茄冬里,敦仁診所附設居家護理所,桃園市八德區高明里1鄰永豐路572巷21號,24.9759293,121.2720668
診所、護理機構,田心里、一心里,張輝鵬診所,桃園市大溪區田心里民權東路94巷13號,24.8821082,121.2917419
診所、護理機構,上興里,晨光診所,桃園市蘆竹區上興里大竹路395-1號2樓,25.0208561,121.2640038
診所、護理機構,錦興里,晨新診所,桃園市蘆竹區錦興里中正路357號4-5樓,25.0490041,121.290965
診所、護理機構,大竹里,慶成診所,桃園市蘆竹區大竹里大新路107號2樓,25.0246703,121.255919
診所、護理機構,橫峰里,沛田心理治療所,桃園市大園區橫峰里橫湳路203號,25.0573662,121.2088863
醫院,三元里、成功里、大有里,臺北榮民總醫院桃園分院,桃園市桃園區三元里成功路三段100號,25.0043516,121.3241788
其他(人民團體、社區發展協會、學校),高平里、上林里、中正里、富林里、,財團法人新生醫護管理專科學校,桃園市龍潭區高平里中豐路高平段418號,24.8319108,121.2086908
診所、護理機構,楊梅里,民安診所,桃園市楊梅區楊梅里大成路175號,24.9124462,121.1457028
診所、護理機構,永平里,姜博文診所,桃園市楊梅區永平里永美路335號,24.9170199,121.182186
長期照顧中心,北貴里,財團法人桃園市私立國宏老人長期照顧中心(養護型),桃園市平鎮區北貴里大勇街86號,24.9284999,121.2237309
醫院,普慶里,長慎醫院,桃園市中壢區普慶里中山東路二段525號1樓,24.9468469,121.2461445
診所、護理機構,莊敬里,活力診所,桃園市中壢區莊敬里莊敬路160號2樓,24.9680255,121.2574098
診所、護理機構,大忠里、大智里,旭登護理之家,桃園市八德區大忠里永福街116號,24.9621265,121.3029667
診所、護理機構,高明里、高城里、茄冬里,敦仁診所附設居家護理所,桃園市八德區高明里1鄰永豐路572巷21號,24.9759293,121.2720668
診所、護理機構,田心里、一心里,張輝鵬診所,桃園市大溪區田心里民權東路94巷13號,24.8821082,121.2917419
診所、護理機構,上興里,晨光診所,桃園市蘆竹區上興里大竹路395-1號2樓,25.0208561,121.2640038
診所、護理機構,錦興里,晨新診所,桃園市蘆竹區錦興里中正路357號4-5樓,25.0490041,121.290965
診所、護理機構,大竹里,慶成診所,桃園市蘆竹區大竹里大新路107號2樓,25.0246703,121.255919
診所、護理機構,橫峰里,沛田心理治療所,桃園市大園區橫峰里橫湳路203號,25.0573662,121.2088863
醫院,三元里、成功里、大有里,臺北榮民總醫院桃園分院,桃園市桃園區三元里成功路三段100號,25.0043516,121.3241788